{"type":"FeatureCollection","features":[{"geometry":{"type":"Point","coordinates":[-8.485305,51.8796465]},"type":"Feature","properties":{"address_line3":"Togher","address_line1":"8 The Acre","energy":50,"county":47,"date_of_construction":"2004-09-08","dwelling_type_id":8,"address_line2":"Lower Pouladuff Rd"},"lat":51.8796465,"lon":-8.485305},{"geometry":{"type":"Point","coordinates":[-8.4809683,51.9036739]},"type":"Feature","properties":{"address_line3":"Cork","address_line1":"9 Allen Square","energy":50,"county":1,"date_of_construction":"2005-09-28","dwelling_type_id":9,"address_line2":"Gurranabraher"},"lat":51.9036739,"lon":-8.4809683},{"geometry":{"type":"Point","coordinates":[-8.4809683,51.9036739]},"type":"Feature","properties":{"address_line3":"Cork","address_line1":"10 Allen Square","energy":50,"county":6,"date_of_construction":"1915-10-07","dwelling_type_id":7,"address_line2":"Gurranabraher"},"lat":51.9036739,"lon":-8.4809683},{"geometry":{"type":"Point","coordinates":[-8.4809683,51.9036739]},"type":"Feature","properties":{"address_line3":"Cork","address_line1":"11 Allen Square","energy":50,"county":25,"date_of_construction":"2004-10-08","dwelling_type_id":3,"address_line2":"Gurranabraher"},"lat":51.9036739,"lon":-8.4809683},{"geometry":{"type":"Point","coordinates":[-8.4809683,51.9036739]},"type":"Feature","properties":{"address_line3":"Cork","address_line1":"12 Allen Square","energy":50,"county":18,"date_of_construction":"1960-09-23","dwelling_type_id":7,"address_line2":"Gurranabraher"},"lat":51.9036739,"lon":-8.4809683},{"geometry":{"type":"Point","coordinates":[-8.4805628,51.9037994]},"type":"Feature","properties":{"address_line3":"Cork","address_line1":"23 Allen Square","energy":50,"county":40,"date_of_construction":"1968-10-01","dwelling_type_id":8,"address_line2":"Ballymacthomas"},"lat":51.9037994,"lon":-8.4805628},{"geometry":{"type":"Point","coordinates":[-8.4809683,51.9036739]},"type":"Feature","properties":{"address_line3":"Cork","address_line1":"15 Allen Square","energy":50,"county":34,"date_of_construction":"1973-10-02","dwelling_type_id":8,"address_line2":"Gurranabraher"},"lat":51.9036739,"lon":-8.4809683},{"geometry":{"type":"Point","coordinates":[-8.4811459,51.9036405]},"type":"Feature","properties":{"address_line3":"Cork","address_line1":"33 Allen Square","energy":50,"county":47,"date_of_construction":"2006-08-28","dwelling_type_id":8,"address_line2":"Gurranabraher"},"lat":51.9036405,"lon":-8.4811459},{"geometry":{"type":"Point","coordinates":[-8.4356711,51.9154864]},"type":"Feature","properties":{"address_line3":"Cork","address_line1":"1 Annalee Grove","energy":50,"county":47,"date_of_construction":"2006-08-28","dwelling_type_id":8,"address_line2":"Mayfield"},"lat":51.9154864,"lon":-8.4356711},{"geometry":{"type":"Point","coordinates":[-8.4369824,51.9156315]},"type":"Feature","properties":{"address_line3":"Cork","address_line1":"28 Annalee Grove","energy":50,"county":33,"date_of_construction":"2004-11-09","dwelling_type_id":8,"address_line2":"Mayfield"},"lat":51.9156315,"lon":-8.4369824},{"geometry":{"type":"Point","coordinates":[-8.4752137,51.9106702]},"type":"Feature","properties":{"address_line3":"Great William O'Brien St","address_line1":"4a","energy":50,"county":33,"date_of_construction":"2004-11-09","dwelling_type_id":8,"address_line2":"Ardfert"},"lat":51.9106702,"lon":-8.4752137},{"geometry":{"type":"Point","coordinates":[-8.4752137,51.9106702]},"type":"Feature","properties":{"address_line3":"Great William O'Brien St","address_line1":"4b","energy":50,"county":33,"date_of_construction":"2004-11-09","dwelling_type_id":8,"address_line2":"Ardfert"},"lat":51.9106702,"lon":-8.4752137},{"geometry":{"type":"Point","coordinates":[-8.4752137,51.9106702]},"type":"Feature","properties":{"address_line3":"Great William O'Brien St","address_line1":"5a","energy":50,"county":33,"date_of_construction":"2004-11-10","dwelling_type_id":8,"address_line2":"Ardfert"},"lat":51.9106702,"lon":-8.4752137},{"geometry":{"type":"Point","coordinates":[-8.495944,51.8774512]},"type":"Feature","properties":{"address_line3":"Cork","address_line1":"24 Argideen Lawn","energy":50,"county":33,"date_of_construction":"2005-11-09","dwelling_type_id":8,"address_line2":"Togher"},"lat":51.8774512,"lon":-8.495944},{"geometry":{"type":"Point","coordinates":[-8.495944,51.8774512]},"type":"Feature","properties":{"address_line3":"Cork","address_line1":"28 Argideen Lawn","energy":50,"county":33,"date_of_construction":"2005-11-09","dwelling_type_id":8,"address_line2":"Togher"},"lat":51.8774512,"lon":-8.495944},{"geometry":{"type":"Point","coordinates":[-8.495944,51.8774512]},"type":"Feature","properties":{"address_line3":"Cork","address_line1":"29 Argideen Lawn","energy":50,"county":33,"date_of_construction":"2005-11-09","dwelling_type_id":8,"address_line2":"Togher"},"lat":51.8774512,"lon":-8.495944},{"geometry":{"type":"Point","coordinates":[-8.4962412,51.87749]},"type":"Feature","properties":{"address_line3":"Cork","address_line1":"31 Argideen Lawn","energy":50,"county":33,"date_of_construction":"2005-11-09","dwelling_type_id":8,"address_line2":"Togher"},"lat":51.87749,"lon":-8.4962412},{"geometry":{"type":"Point","coordinates":[-8.4645185,51.9124706]},"type":"Feature","properties":{"address_line3":"Co. Cork","address_line1":"25 Arderin Way","energy":50,"county":33,"date_of_construction":"2004-11-13","dwelling_type_id":9,"address_line2":"The Glen"},"lat":51.9124706,"lon":-8.4645185},{"geometry":{"type":"Point","coordinates":[-8.4642808,51.9125572]},"type":"Feature","properties":{"address_line3":"Co. Cork","address_line1":"28 Arderin Way","energy":50,"county":33,"date_of_construction":"2004-11-13","dwelling_type_id":8,"address_line2":"The Glen"},"lat":51.9125572,"lon":-8.4642808},{"geometry":{"type":"Point","coordinates":[-8.4640282,51.9127058]},"type":"Feature","properties":{"address_line3":"The Glen","address_line1":"Saint Paul","energy":50,"county":33,"date_of_construction":"2004-11-13","dwelling_type_id":8,"address_line2":"31 Arderin Way"},"lat":51.9127058,"lon":-8.4640282},{"geometry":{"type":"Point","coordinates":[-8.4625743,51.9128644]},"type":"Feature","properties":{"address_line3":"Co. Cork","address_line1":"45 Arderin Way","energy":50,"county":33,"date_of_construction":"1995-10-30","dwelling_type_id":8,"address_line2":"The Glen"},"lat":51.9128644,"lon":-8.4625743},{"geometry":{"type":"Point","coordinates":[-8.4623201,51.912854]},"type":"Feature","properties":{"address_line3":"Co. Cork","address_line1":"48 Arderin Way","energy":50,"county":33,"date_of_construction":"1995-10-30","dwelling_type_id":8,"address_line2":"The Glen"},"lat":51.912854,"lon":-8.4623201},{"geometry":{"type":"Point","coordinates":[-8.4962264,51.879072]},"type":"Feature","properties":{"address_line3":"Cork","address_line1":"17 Araglen Ct","energy":50,"county":33,"date_of_construction":"2002-08-19","dwelling_type_id":8,"address_line2":"Togher"},"lat":51.879072,"lon":-8.4962264},{"geometry":{"type":"Point","coordinates":[-8.4624803,51.9119513]},"type":"Feature","properties":{"address_line3":"Co. Cork","address_line1":"78 Arderin Way","energy":50,"county":33,"date_of_construction":"2012-11-27","dwelling_type_id":9,"address_line2":"The Glen"},"lat":51.9119513,"lon":-8.4624803},{"geometry":{"type":"Point","coordinates":[-8.4637523,51.9123225]},"type":"Feature","properties":{"address_line3":"Co. Cork","address_line1":"60A Arderin Way","energy":50,"county":33,"date_of_construction":"1900-05-01","dwelling_type_id":7,"address_line2":"The Glen"},"lat":51.9123225,"lon":-8.4637523},{"geometry":{"type":"Point","coordinates":[-8.5107388,51.9035008]},"type":"Feature","properties":{"address_line3":"Hollyhill","address_line1":"1 Ardcullen","energy":50,"county":33,"date_of_construction":"1910-03-11","dwelling_type_id":9,"address_line2":"Knocknaheeney"},"lat":51.9035008,"lon":-8.5107388},{"geometry":{"type":"Point","coordinates":[-8.437145,51.9155973]},"type":"Feature","properties":{"address_line3":"Cork","address_line1":"26 Annalee Grove","energy":50,"county":33,"date_of_construction":"2000-01-23","dwelling_type_id":8,"address_line2":"Mayfield"},"lat":51.9155973,"lon":-8.437145},{"geometry":{"type":"Point","coordinates":[-8.5098302,51.9034684]},"type":"Feature","properties":{"address_line3":"Knocknaheeney","address_line1":"Saint Josephs","energy":50,"county":32,"date_of_construction":"2003-11-05","dwelling_type_id":9,"address_line2":"18 Ardcullen"},"lat":51.9034684,"lon":-8.5098302},{"geometry":{"type":"Point","coordinates":[-8.5097517,51.9034647]},"type":"Feature","properties":{"address_line3":"Knocknaheeney","address_line1":"Natsona","energy":50,"county":53,"date_of_construction":"1970-09-22","dwelling_type_id":8,"address_line2":"19 Ardcullen"},"lat":51.9034647,"lon":-8.5097517},{"geometry":{"type":"Point","coordinates":[-8.5094608,51.9034558]},"type":"Feature","properties":{"address_line3":"Hollyhill","address_line1":"22 Ardcullen","energy":50,"county":54,"date_of_construction":"1998-09-25","dwelling_type_id":4,"address_line2":"Knocknaheeney"},"lat":51.9034558,"lon":-8.5094608},{"geometry":{"type":"Point","coordinates":[-8.5087484,51.9042173]},"type":"Feature","properties":{"address_line3":"Hollyhill","address_line1":"33 Ardcullen","energy":50,"county":54,"date_of_construction":"2004-11-01","dwelling_type_id":4,"address_line2":"Knocknaheeney"},"lat":51.9042173,"lon":-8.5087484},{"geometry":{"type":"Point","coordinates":[-8.5105225,51.90469]},"type":"Feature","properties":{"address_line3":"Hollyhill","address_line1":"60 Ardcullen","energy":50,"county":22,"date_of_construction":"1993-11-11","dwelling_type_id":6,"address_line2":"Knocknaheeney"},"lat":51.90469,"lon":-8.5105225},{"geometry":{"type":"Point","coordinates":[-8.5090615,51.9044339]},"type":"Feature","properties":{"address_line3":"Hollyhill","address_line1":"74 Ardcullen","energy":50,"county":33,"date_of_construction":"2005-02-18","dwelling_type_id":9,"address_line2":"Knocknaheeney"},"lat":51.9044339,"lon":-8.5090615},{"geometry":{"type":"Point","coordinates":[-8.5089849,51.9044322]},"type":"Feature","properties":{"address_line3":"Knocknaheeney","address_line1":"Casa Pio","energy":50,"county":33,"date_of_construction":"1900-07-11","dwelling_type_id":9,"address_line2":"75 Ardcullen"},"lat":51.9044322,"lon":-8.5089849},{"geometry":{"type":"Point","coordinates":[-8.5090601,51.9048681]},"type":"Feature","properties":{"address_line3":"Hollyhill","address_line1":"86 Ardcullen","energy":50,"county":33,"date_of_construction":"1972-07-18","dwelling_type_id":7,"address_line2":"Knocknaheeney"},"lat":51.9048681,"lon":-8.5090601},{"geometry":{"type":"Point","coordinates":[-8.4361347,51.915158]},"type":"Feature","properties":{"address_line3":"Cork","address_line1":"8 Annalee Grove","energy":50,"county":38,"date_of_construction":"2004-09-18","dwelling_type_id":8,"address_line2":"Mayfield"},"lat":51.915158,"lon":-8.4361347},{"geometry":{"type":"Point","coordinates":[-8.5103437,51.9058889]},"type":"Feature","properties":{"address_line3":"Hollyhill","address_line1":"121 Ardcullen","energy":50,"county":33,"date_of_construction":"2010-07-24","dwelling_type_id":9,"address_line2":"Knocknaheeney"},"lat":51.9058889,"lon":-8.5103437},{"geometry":{"type":"Point","coordinates":[-8.5097628,51.9057237]},"type":"Feature","properties":{"address_line3":"Hollyhill","address_line1":"128 Ardcullen","energy":50,"county":33,"date_of_construction":"1985-05-20","dwelling_type_id":9,"address_line2":"Knocknaheeney"},"lat":51.9057237,"lon":-8.5097628},{"geometry":{"type":"Point","coordinates":[-8.5094612,51.9058227]},"type":"Feature","properties":{"address_line3":"Hollyhill","address_line1":"130 Ardcullen","energy":50,"county":33,"date_of_construction":"1960-07-29","dwelling_type_id":9,"address_line2":"Knocknaheeney"},"lat":51.9058227,"lon":-8.5094612},{"geometry":{"type":"Point","coordinates":[-8.5100651,51.9048716]},"type":"Feature","properties":{"address_line3":"Hollyhill","address_line1":"95 Ardcullen","energy":50,"county":33,"date_of_construction":"1985-09-13","dwelling_type_id":8,"address_line2":"Knocknaheeney"},"lat":51.9048716,"lon":-8.5100651},{"geometry":{"type":"Point","coordinates":[-8.5000768,51.9075254]},"type":"Feature","properties":{"address_line3":"Cork","address_line1":"19 Ardmore Ave.","energy":50,"county":33,"date_of_construction":"2002-02-09","dwelling_type_id":9,"address_line2":"Knocknaheeney"},"lat":51.9075254,"lon":-8.5000768},{"geometry":{"type":"Point","coordinates":[-8.5001494,51.9075058]},"type":"Feature","properties":{"address_line3":"Cork","address_line1":"21 Ardmore Ave.","energy":50,"county":33,"date_of_construction":"2004-12-21","dwelling_type_id":9,"address_line2":"Knocknaheeney"},"lat":51.9075058,"lon":-8.5001494},{"geometry":{"type":"Point","coordinates":[-8.5006723,51.9077075]},"type":"Feature","properties":{"address_line3":"Cork","address_line1":"22 Ardmore Ave.","energy":50,"county":33,"date_of_construction":"1910-08-06","dwelling_type_id":7,"address_line2":"Knocknaheeney"},"lat":51.9077075,"lon":-8.5006723},{"geometry":{"type":"Point","coordinates":[-8.500222,51.907484]},"type":"Feature","properties":{"address_line3":"Cork","address_line1":"23 Ardmore Ave.","energy":50,"county":33,"date_of_construction":"1997-08-17","dwelling_type_id":9,"address_line2":"Knocknaheeney"},"lat":51.907484,"lon":-8.500222},{"geometry":{"type":"Point","coordinates":[-8.5005057,51.9073905]},"type":"Feature","properties":{"address_line3":"Knocknaheeney","address_line1":"Saint Jude","energy":50,"county":33,"date_of_construction":"2005-08-03","dwelling_type_id":9,"address_line2":"25 Ardmore Ave."},"lat":51.9073905,"lon":-8.5005057},{"geometry":{"type":"Point","coordinates":[-8.5004388,51.9073049]},"type":"Feature","properties":{"address_line3":"Cork","address_line1":"29 Ardmore Ave.","energy":50,"county":33,"date_of_construction":"1920-10-20","dwelling_type_id":9,"address_line2":"Knocknaheeney"},"lat":51.9073049,"lon":-8.5004388},{"geometry":{"type":"Point","coordinates":[-8.500407,51.9072578]},"type":"Feature","properties":{"address_line3":"Cork","address_line1":"31 Ardmore Ave.","energy":50,"county":33,"date_of_construction":"2003-01-23","dwelling_type_id":9,"address_line2":"Knocknaheeney"},"lat":51.9072578,"lon":-8.500407},{"geometry":{"type":"Point","coordinates":[-8.5003471,51.9071721]},"type":"Feature","properties":{"address_line3":"Cork","address_line1":"35 Ardmore Ave.","energy":50,"county":33,"date_of_construction":"1999-01-26","dwelling_type_id":9,"address_line2":"Knocknaheeney"},"lat":51.9071721,"lon":-8.5003471},{"geometry":{"type":"Point","coordinates":[-8.5032199,51.9071664]},"type":"Feature","properties":{"address_line3":"Cork","address_line1":"74 Ardmore Ave.","energy":50,"county":34,"date_of_construction":"2005-11-16","dwelling_type_id":8,"address_line2":"Knocknaheeney"},"lat":51.9071664,"lon":-8.5032199},{"geometry":{"type":"Point","coordinates":[-8.5025426,51.9064213]},"type":"Feature","properties":{"address_line3":"Cork","address_line1":"75 Ardmore Ave.","energy":50,"county":34,"date_of_construction":"1970-11-16","dwelling_type_id":5,"address_line2":"Knocknaheeney"},"lat":51.9064213,"lon":-8.5025426},{"geometry":{"type":"Point","coordinates":[-8.4375352,51.9155377]},"type":"Feature","properties":{"address_line3":"Cork","address_line1":"22 Annalee Grove","energy":50,"county":33,"date_of_construction":"2004-05-17","dwelling_type_id":8,"address_line2":"Mayfield"},"lat":51.9155377,"lon":-8.4375352},{"geometry":{"type":"Point","coordinates":[-8.5030756,51.9064084]},"type":"Feature","properties":{"address_line3":"Cork","address_line1":"85 Ardmore Ave.","energy":50,"county":33,"date_of_construction":"1996-12-19","dwelling_type_id":8,"address_line2":"Knocknaheeney"},"lat":51.9064084,"lon":-8.5030756},{"geometry":{"type":"Point","coordinates":[-8.5005365,51.9077632]},"type":"Feature","properties":{"address_line3":"Ireland","address_line1":"89 Ardmore Ave","energy":50,"county":55,"date_of_construction":"1978-03-15","dwelling_type_id":9,"address_line2":"Cork"},"lat":51.9077632,"lon":-8.5005365}]}